"CITY_ASCII","LAT","LNG","COUNTRY"
"Tokyo",35.6897,139.6922,"Japan"
"Shanghai",31.1667,121.4667,"China"
"Seoul",37.5833,127,"Korea, South"
"Beijing",39.905,116.3914,"China"
"Shenzhen",22.535,114.054,"China"
"Osaka",34.6936,135.5019,"Japan"
"Chengdu",30.6636,104.0667,"China"
"Hong Kong",22.305,114.185,"Hong Kong"
"Hangzhou",30.25,120.1675,"China"
"Taipei",25.0478,121.5319,"Taiwan"
